neighbourhood_id,neighbourhood_name,neighbourhood_slug,latitude,longitude,location_id,city,region,country,meta_title,meta_description,description
,Downtown Greenville,downtown-greenville,34.8526,-82.3940,,Greenville,South Carolina,United States,Downtown Greenville Yoga | Main Street Studios - YogaNearMe,"Find yoga studios in Downtown Greenville, SC. Discover Vinyasa, Hot Yoga, and wellness classes on Main Street.",Downtown Greenville anchors the Upstate's booming yoga scene. Find studios serving the young professionals and families drawn to this revitalized Main Street district.
,Falls Park,falls-park,34.8450,-82.3980,,Greenville,South Carolina,United States,Falls Park Yoga | West End Greenville Wellness - YogaNearMe,"Discover yoga near Falls Park, Greenville. Explore boutique studios in the West End near the Liberty Bridge.",Falls Park pairs yoga with Greenville's natural centrepiece. Find studios steps from the Reedy River falls in the city's most scenic neighbourhood.
,North Main,north-main,34.8700,-82.3950,,Greenville,South Carolina,United States,North Main Yoga Studios | Augusta Road Wellness - YogaNearMe,"Looking for yoga on North Main? Find established studios along this historic Greenville corridor.",North Main offers yoga in Greenville's most walkable residential area. Find quality studios among the historic homes and local businesses north of downtown.
,Augusta Road,augusta-road,34.8300,-82.4100,,Greenville,South Carolina,United States,Augusta Road Yoga | South Greenville Wellness - YogaNearMe,"Find yoga on Augusta Road, Greenville. Discover neighbourhood studios in this established South Main corridor.",Augusta Road brings neighbourhood charm to Greenville yoga. Find community studios among the local shops in this beloved south side district.
,Simpsonville,simpsonville,34.7371,-82.2543,,Simpsonville,South Carolina,United States,Simpsonville SC Yoga Studios | Golden Strip Wellness - YogaNearMe,"Discover yoga in Simpsonville, SC. Explore family-friendly studios in this fast-growing Greenville suburb.",Simpsonville provides suburban yoga quality along the I-385 corridor. Studios serve the families driving the Golden Strip's rapid residential growth.
,Travelers Rest,travelers-rest,34.9676,-82.4432,,Travelers Rest,South Carolina,United States,Travelers Rest Yoga | Swamp Rabbit Trail Wellness - YogaNearMe,"Looking for yoga in Travelers Rest? Find active lifestyle studios along the Swamp Rabbit Trail.",Travelers Rest brings trail culture to Upstate yoga. Find studios serving the cyclists, runners, and outdoor enthusiasts on the Swamp Rabbit corridor.
,Greer,greer,34.9388,-82.2270,,Greer,South Carolina,United States,Greer SC Yoga Studios | GSP Area Wellness - YogaNearMe,"Find yoga in Greer, SC. Explore growing studios in this community between Greenville and Spartanburg.",Greer's strategic location has attracted quality yoga instruction. Studios serve the families and professionals in this increasingly popular Upstate community.
,Mauldin,mauldin,34.7788,-82.3110,,Mauldin,South Carolina,United States,Mauldin SC Yoga | Central Greenville County - YogaNearMe,"Discover yoga in Mauldin, SC. Explore community studios in this well-located Greenville suburb.",Mauldin offers accessible yoga in central Greenville County. Find welcoming studios serving the diverse families in this established suburban community.
