neighbourhood_id,neighbourhood_name,neighbourhood_slug,latitude,longitude,location_id,city,region,country,meta_title,meta_description,description
,Downtown Milwaukee,downtown-milwaukee,43.0389,-87.9065,,Milwaukee,Wisconsin,United States,Downtown Milwaukee Yoga | Water Street Studios - YogaNearMe,"Find yoga studios in Downtown Milwaukee, WI. Discover Vinyasa, Hot Yoga, and lakefront wellness in Wisconsin's largest city.",Downtown Milwaukee anchors Wisconsin's urban yoga scene. Find studios serving professionals, creatives, and urban dwellers along the lakefront and riverwalk.
,Third Ward,third-ward,43.0330,-87.9050,,Milwaukee,Wisconsin,United States,Third Ward Yoga | Historic Milwaukee Wellness - YogaNearMe,"Discover yoga in Milwaukee's Third Ward. Explore boutique studios in this transformed warehouse district.",The Third Ward brings warehouse elegance to Milwaukee yoga. Find polished studios among galleries and restaurants in the city's most desirable urban neighbourhood.
,East Side,east-side,43.0600,-87.8850,,Milwaukee,Wisconsin,United States,East Side Milwaukee Yoga | Brady Street Studios - YogaNearMe,"Looking for yoga on Milwaukee's East Side? Find eclectic studios on Brady Street and beyond.",Milwaukee's East Side brings youthful energy to the city's yoga scene. Find diverse studios serving UWM students and the creative professionals on Brady Street.
,Bay View,bay-view,42.9920,-87.8970,,Milwaukee,Wisconsin,United States,Bay View Yoga Studios | South Milwaukee Wellness - YogaNearMe,"Find yoga in Bay View, Milwaukee. Discover community studios in this vibrant south side neighbourhood.",Bay View's artistic community has cultivated a thriving yoga scene. Find independent studios in this walkable neighbourhood known for its local pride.
,Walker's Point,walkers-point,43.0230,-87.9150,,Milwaukee,Wisconsin,United States,Walker's Point Yoga | Fifth Ward Wellness - YogaNearMe,"Discover yoga in Walker's Point, Milwaukee. Explore creative studios in this evolving Fifth Ward neighbourhood.",Walker's Point brings industrial character to Milwaukee yoga. Find studios among the galleries and nightlife in this rapidly transforming south side area.
,Shorewood,shorewood,43.0900,-87.8870,,Shorewood,Wisconsin,United States,Shorewood Yoga | North Shore Milwaukee - YogaNearMe,"Looking for yoga in Shorewood? Find village studios in this walkable North Shore community.",Shorewood offers urban convenience with village charm. Find quality yoga in this dense, walkable community north of Milwaukee.
,Wauwatosa,wauwatosa,43.0495,-88.0076,,Wauwatosa,Wisconsin,United States,Wauwatosa Yoga Studios | West Milwaukee Wellness - YogaNearMe,"Find yoga in Wauwatosa, WI. Explore established studios in this family-friendly western suburb.",Wauwatosa provides suburban yoga quality minutes from downtown Milwaukee. Find studios serving the families and professionals in this established community.
,Brookfield,brookfield,43.0606,-88.1065,,Brookfield,Wisconsin,United States,Brookfield WI Yoga | West Waukesha County - YogaNearMe,"Discover yoga in Brookfield, WI. Explore modern studios in Milwaukee's most affluent western suburb.",Brookfield offers upscale yoga for Milwaukee's corporate class. Find premium studios serving the executives and families in Waukesha County's population center.
,Riverwest,riverwest,43.0670,-87.9050,,Milwaukee,Wisconsin,United States,Riverwest Yoga | Community Milwaukee Studios - YogaNearMe,"Find yoga in Riverwest, Milwaukee. Discover affordable, community-focused studios in this diverse neighbourhood.",Riverwest brings grassroots energy to Milwaukee yoga. Find accessible studios in this intentionally diverse neighbourhood known for its independence.
