neighbourhood_id,neighbourhood_name,neighbourhood_slug,latitude,longitude,location_id,city,region,country,meta_title,meta_description,description
,Downtown Santa Barbara,downtown-santa-barbara,34.4208,-119.6982,,Santa Barbara,California,United States,Downtown Santa Barbara Yoga | State Street Studios - YogaNearMe,"Find yoga studios in Downtown Santa Barbara, CA. Discover Vinyasa, Hatha, and wellness classes on State Street and beyond.",Downtown Santa Barbara brings Mediterranean elegance to California yoga. Find boutique studios serving the affluent community drawn to the American Riviera's perfect climate.
,Funk Zone,funk-zone,34.4130,-119.6850,,Santa Barbara,California,United States,Funk Zone Yoga | Urban Wine Trail Wellness - YogaNearMe,"Discover yoga in Santa Barbara's Funk Zone. Explore creative studios among wineries and galleries near the waterfront.",The Funk Zone's industrial-chic aesthetic extends to its yoga offerings. Find innovative studios alongside tasting rooms in Santa Barbara's most dynamic neighborhood.
,Montecito,montecito,34.4350,-119.6320,,Montecito,California,United States,Montecito Yoga Studios | Luxury Santa Barbara - YogaNearMe,"Looking for yoga in Montecito? Find exclusive studios and private instruction in California's most prestigious enclave.",Montecito offers yoga for the discerning practitioner. Intimate studios and private teachers serve the celebrities and executives who call this exclusive community home.
,Upper State Street,upper-state-street,34.4450,-119.7150,,Santa Barbara,California,United States,Upper State Yoga | North Santa Barbara Wellness - YogaNearMe,"Find yoga on Upper State Street, Santa Barbara. Discover neighborhood studios serving families and professionals.",Upper State Street provides accessible yoga for Santa Barbara families. Studios here offer quality instruction at more attainable prices than the beachside core.
,Mesa,mesa,34.4030,-119.7200,,Santa Barbara,California,United States,Mesa Santa Barbara Yoga | Westside Beach Community - YogaNearMe,"Discover yoga on the Mesa, Santa Barbara. Explore community studios in this laid-back beachside neighborhood.",The Mesa's surf culture influences its yoga scene. Find relaxed studios serving the active residents who treasure this neighborhood's beach access and community vibe.
,Goleta,goleta,34.4358,-119.8276,,Goleta,California,United States,Goleta CA Yoga Studios | UCSB Area Wellness - YogaNearMe,"Find yoga in Goleta, CA. Explore studios near UC Santa Barbara and the tech corridor.",Goleta blends university energy with tech industry growth. Yoga studios serve students, researchers, and the professionals driving Santa Barbara County's innovation economy.
,Carpinteria,carpinteria,34.3989,-119.5185,,Carpinteria,California,United States,Carpinteria Yoga | South Santa Barbara Coast - YogaNearMe,"Looking for yoga in Carpinteria? Discover beach-town studios in this authentic coastal community.",Carpinteria offers yoga with genuine small-town character. Find welcoming studios in this agricultural and surf community south of Santa Barbara.
,Summerland,summerland,34.4214,-119.5967,,Summerland,California,United States,Summerland Yoga | Vintage Beach Town Wellness - YogaNearMe,"Find yoga in Summerland, CA. Explore boutique wellness in this charming antique-filled coastal village.",Summerland's vintage charm attracts practitioners seeking intimate yoga experiences. Boutique studios complement this tiny village's antique shops and ocean views.
